[{"type":"Point","coordinates":[14.3312151315039,-6.02925834324263],"properties":{"name":"Kingsgrave","type":"Castle","id":67}},{"type":"Point","coordinates":[21.3582918164305,-10.1128122146694],"properties":{"name":"Salt Shore","type":"Castle","id":70}},{"type":"Point","coordinates":[23.9841010564098,-9.58951927004722],"properties":{"name":"Lemonwood","type":"Castle","id":74}},{"type":"Point","coordinates":[12.2006652855421,-7.34683522166637],"properties":{"name":"High Hermitage","type":"Castle","id":63}},{"type":"Point","coordinates":[17.7793418558894,-4.29117820574748],"properties":{"name":"Wyl Castle","type":"Castle","id":41}},{"type":"Point","coordinates":[19.5921781283306,5.07202769624256],"properties":{"name":"Stokeworth","type":"Castle","id":9}},{"type":"Point","coordinates":[12.9856047024754,7.60439176753926],"properties":{"name":"Pinkmaiden","type":"Castle","id":13}},{"type":"Point","coordinates":[21.6386273224782,9.09016994959158],"properties":{"name":"Wickenden","type":"Castle","id":17}},{"type":"Point","coordinates":[23.0029267852432,-3.80526332859829],"properties":{"name":"Mistwood","type":"Castle","id":33}},{"type":"Point","coordinates":[12.9388821181341,-1.30093280790635],"properties":{"name":"Cider Hall","type":"Castle","id":51}},{"type":"Point","coordinates":[23.806555235913,5.74483291075682],"properties":{"name":"Sharp Point","type":"Castle","id":23}},{"type":"Point","coordinates":[7.92087655988196,-4.52479112745381],"properties":{"name":"Brightwater Keep","type":"Castle","id":54}},{"type":"Point","coordinates":[14.8545080761261,-4.80512663350142],"properties":{"name":"Vulture's Roost","type":"Castle","id":44}},{"type":"Point","coordinates":[8.1544894815883,-5.4312092636744],"properties":{"name":"Honeyholt","type":"Castle","id":56}},{"type":"Point","coordinates":[9.92060316968822,-6.82354227704417],"properties":{"name":"Uplands","type":"Castle","id":60}},{"type":"Point","coordinates":[22.7412803129321,1.54914483691098],"properties":{"name":"Haystack Hall","type":"Castle","id":25}},{"type":"Point","coordinates":[36.2277542830389,14.783316851575],"properties":{"name":"Lorath","type":"Castle","id":146}},{"type":"Point","coordinates":[10.7102148450556,3.6329720985315],"properties":{"name":"Silverhill","type":"Castle","id":85}},{"type":"Point","coordinates":[5.70155380367175,4.99727156129652],"properties":{"name":"Feastfires","type":"Castle","id":89}},{"type":"Point","coordinates":[8.40211917859702,10.1554448725725],"properties":{"name":"Banefort","type":"Castle","id":97}},{"type":"Point","coordinates":[21.816173142975,-1.26355474043333],"properties":{"name":"Griffin's Roost","type":"Castle","id":29}},{"type":"Point","coordinates":[21.6806776483853,10.949728806374],"properties":{"name":"Redfort","type":"Castle","id":106}},{"type":"Point","coordinates":[23.9887733148439,14.5847458681246],"properties":{"name":"Longbow Hall","type":"Castle","id":111}},{"type":"Point","coordinates":[13.2986460175619,14.4726116657056],"properties":{"name":"The Twins","type":"Castle","id":120}},{"type":"Point","coordinates":[19.3679097234925,31.330120096035],"properties":{"name":"Last Hearth","type":"Castle","id":134}},{"type":"Point","coordinates":[23.6383539322844,29.4985947898573],"properties":{"name":"Karhold","type":"Castle","id":135}},{"type":"Point","coordinates":[11.055961969181,5.94106776499013],"properties":{"name":"Hornvale","type":"Castle","id":93}},{"type":"Point","coordinates":[24.2761172085427,1.40196869623598],"properties":{"name":"Parchments","type":"Castle","id":163}},{"type":"Point","coordinates":[11.866598807502,24.6044040801095],"properties":{"name":"Torrhen's Square","type":"Castle","id":186}},{"type":"Point","coordinates":[9.1311216325429,12.1372605738151],"properties":{"name":"Ten Towers","type":"Castle","id":189}},{"type":"Point","coordinates":[19.6015226451989,7.31471174462342],"properties":{"name":"Antlers","type":"Castle","id":8}},{"type":"Point","coordinates":[16.9009572702736,8.37998666760431],"properties":{"name":"Harrenhal","type":"Castle","id":10}},{"type":"Point","coordinates":[18.8562974249557,6.41530199605405],"properties":{"name":"Sow's Horn","type":"Castle","id":4}},{"type":"Point","coordinates":[14.0508796254563,8.01555050974242],"properties":{"name":"Acorn Hall","type":"Castle","id":12}},{"type":"Point","coordinates":[9.15902504492555,4.05347535760291],"properties":{"name":"Clegane Hall","type":"Castle","id":86}},{"type":"Point","coordinates":[24.2223862365502,21.9015025759672],"properties":{"name":"Widow's Watch","type":"Castle","id":128}},{"type":"Point","coordinates":[6.09793978987049,11.854951441272],"properties":{"name":"Hammerhorn","type":"Castle","id":222}},{"type":"Point","coordinates":[13.3126627928643,9.49198417492648],"properties":{"name":"Riverrun","type":"Castle","id":14}},{"type":"Point","coordinates":[24.7970740239478,-4.0855988346459],"properties":{"name":"Greenstone","type":"Castle","id":31}},{"type":"Point","coordinates":[22.8721035490876,-4.59020274553159],"properties":{"name":"Weeping Tower","type":"Castle","id":32}},{"type":"Point","coordinates":[20.0407149380068,-3.23524779963483],"properties":{"name":"Stonehelm","type":"Castle","id":34}},{"type":"Point","coordinates":[17.3775276305545,9.37050545563918],"properties":{"name":"Darry","type":"Castle","id":16}},{"type":"Point","coordinates":[22.0684750984178,7.26798916028214],"properties":{"name":"Rook's Rest","type":"Castle","id":19}},{"type":"Point","coordinates":[23.918689438332,9.18361511827412],"properties":{"name":"Dyre Den","type":"Castle","id":20}},{"type":"Point","coordinates":[24.2083694612479,4.95054897695527],"properties":{"name":"Stonedance","type":"Castle","id":24}},{"type":"Point","coordinates":[22.0404415478131,1.29684288146814],"properties":{"name":"Bronzegate","type":"Castle","id":26}},{"type":"Point","coordinates":[21.2835356814845,0.427802812720564],"properties":{"name":"Felwood","type":"Castle","id":27}},{"type":"Point","coordinates":[22.7132467623273,-0.656161143996854],"properties":{"name":"Storm's End","type":"Castle","id":28}},{"type":"Point","coordinates":[25.0587204962589,-1.9924270561571],"properties":{"name":"Rain House","type":"Castle","id":30}},{"type":"Point","coordinates":[19.3211871391513,-6.16942609626643],"properties":{"name":"Ghaston Grey","type":"Castle","id":42}},{"type":"Point","coordinates":[16.8729237196688,-6.92633196259497],"properties":{"name":"Yronwood","type":"Castle","id":43}},{"type":"Point","coordinates":[17.8634425077037,-2.85212260803644],"properties":{"name":"Blackhaven","type":"Castle","id":38}},{"type":"Point","coordinates":[10.7148871034898,-2.76802195622215],"properties":{"name":"Highgarden","type":"Castle","id":52}},{"type":"Point","coordinates":[10.798987755304,-4.44069047563953],"properties":{"name":"Horn Hill","type":"Castle","id":53}},{"type":"Point","coordinates":[6.45378741156616,-4.41265692503476],"properties":{"name":"Bandallon","type":"Castle","id":55}},{"type":"Point","coordinates":[6.35099772601537,-7.24404553611559],"properties":{"name":"Blackcrown","type":"Castle","id":58}},{"type":"Point","coordinates":[17.13457019198,0.175500857277711],"properties":{"name":"Grassy Vale","type":"Castle","id":40}},{"type":"Point","coordinates":[13.6116873326484,-4.27248917201096],"properties":{"name":"Nightsong","type":"Castle","id":45}},{"type":"Point","coordinates":[14.6489287050245,-1.85225930313331],"properties":{"name":"Ashford","type":"Castle","id":46}},{"type":"Point","coordinates":[18.98011227346,24.919781524413],"properties":{"name":"Hornwood","type":"Castle","id":129}},{"type":"Point","coordinates":[14.4199880417523,0.736171869372903],"properties":{"name":"Bitterbridge","type":"Castle","id":79}},{"type":"Point","coordinates":[6.54256032181457,2.29670618637125],"properties":{"name":"Crakehall","type":"Castle","id":83}},{"type":"Point","coordinates":[8.54228693162082,2.89475526593947],"properties":{"name":"Cornfield","type":"Castle","id":84}},{"type":"Point","coordinates":[12.1445981843326,-6.62730742281086],"properties":{"name":"Blackmont","type":"Castle","id":62}},{"type":"Point","coordinates":[14.1630138278753,-7.29076812045685],"properties":{"name":"Skyreach","type":"Castle","id":66}},{"type":"Point","coordinates":[13.6677544338579,-9.43066248328691],"properties":{"name":"Sandstone","type":"Castle","id":65}},{"type":"Point","coordinates":[16.2001185051546,-9.14098246037106],"properties":{"name":"Hellholt","type":"Castle","id":68}},{"type":"Point","coordinates":[20.3958065790004,-9.30918376399962],"properties":{"name":"Vaith","type":"Castle","id":69}},{"type":"Point","coordinates":[21.4704260188496,-8.54293338080282],"properties":{"name":"Godsgrace","type":"Castle","id":71}},{"type":"Point","coordinates":[7.33684425561612,-0.188935300584191],"properties":{"name":"Old Oak","type":"Castle","id":82}},{"type":"Point","coordinates":[24.5914946528463,-8.92605857240122],"properties":{"name":"Sunspear","type":"Castle","id":75}},{"type":"Point","coordinates":[20.638764017575,-7.29076812045685],"properties":{"name":"The Tor","type":"Castle","id":72}},{"type":"Point","coordinates":[10.7756264631334,0.736171869372903],"properties":{"name":"Goldengrove","type":"Castle","id":80}},{"type":"Point","coordinates":[11.4437594192135,-8.16915270607268],"properties":{"name":"Starfall","type":"Castle","id":64}},{"type":"Point","coordinates":[23.8345887865177,-7.44962490721716],"properties":{"name":"Ghost Hill","type":"Castle","id":73}},{"type":"Point","coordinates":[14.1303080188364,-0.226313368057212],"properties":{"name":"Longtable","type":"Castle","id":78}},{"type":"Point","coordinates":[19.8678413759441,11.6692566052295],"properties":{"name":"The Bloody Gate","type":"Castle","id":102}},{"type":"Point","coordinates":[18.3073070589458,13.8278400017961],"properties":{"name":"Strongsong","type":"Castle","id":104}},{"type":"Point","coordinates":[19.9425975108901,12.2112385835882],"properties":{"name":"The Eyrie","type":"Castle","id":103}},{"type":"Point","coordinates":[8.96279019069223,6.45501619274407],"properties":{"name":"Sarsfield","type":"Castle","id":91}},{"type":"Point","coordinates":[8.40211917859702,8.80983444354396],"properties":{"name":"The Crag","type":"Castle","id":96}},{"type":"Point","coordinates":[11.2708858571509,5.05333866250605],"properties":{"name":"Deep Den","type":"Castle","id":92}},{"type":"Point","coordinates":[15.2049274586856,9.43591707371695],"properties":{"name":"Stone Hedge","type":"Castle","id":99}},{"type":"Point","coordinates":[11.9810691391381,7.99686147600591],"properties":{"name":"Wayfarer's Rest","type":"Castle","id":94}},{"type":"Point","coordinates":[9.14033601118905,8.0155505097424],"properties":{"name":"Ashemark","type":"Castle","id":98}},{"type":"Point","coordinates":[21.9049460532234,16.6311950622722],"properties":{"name":"Coldwater","type":"Castle","id":118}},{"type":"Point","coordinates":[22.6244738520789,12.3700953703486],"properties":{"name":"Ironoaks","type":"Castle","id":107}},{"type":"Point","coordinates":[18.1297612384489,19.2289707516466],"properties":{"name":"Oldcastle","type":"Castle","id":125}},{"type":"Point","coordinates":[21.2041072881044,22.4715181049306],"properties":{"name":"Ramsgate","type":"Castle","id":127}},{"type":"Point","coordinates":[14.2424422212555,17.0143202538706],"properties":{"name":"Greywater Watch","type":"Castle","id":122}},{"type":"Point","coordinates":[22.4282389978456,15.4724749706087],"properties":{"name":"Snakewood","type":"Castle","id":117}},{"type":"Point","coordinates":[23.7831939437423,12.7064979776057],"properties":{"name":"Old Anchor","type":"Castle","id":108}},{"type":"Point","coordinates":[24.9699475860105,12.4074734378216],"properties":{"name":"Runestone","type":"Castle","id":109}},{"type":"Point","coordinates":[13.0743776127238,13.2952025403057],"properties":{"name":"Seagard","type":"Castle","id":119}},{"type":"Point","coordinates":[18.8539612957386,34.8903810228396],"properties":{"name":"Castle Black","type":"Castle","id":136}},{"type":"Point","coordinates":[16.3589752919149,34.9931707083904],"properties":{"name":"Shadow Tower","type":"Castle","id":137}},{"type":"Point","coordinates":[14.5975338622491,26.05981258234],"properties":{"name":"Cerwyn","type":"Castle","id":131}},{"type":"Point","coordinates":[14.5601557947761,26.6111390775669],"properties":{"name":"Winterfell","type":"Castle","id":132}},{"type":"Point","coordinates":[24.7994101531649,0.271282155177303],"properties":{"name":"Evenfall Hall","type":"Castle","id":144}},{"type":"Point","coordinates":[10.6588200022803,29.3584270368335],"properties":{"name":"Deepwood Motte","type":"Castle","id":133}},{"type":"Point","coordinates":[19.9145639602854,27.3587004270272],"properties":{"name":"The Dreadfort","type":"Castle","id":130}},{"type":"Point","coordinates":[7.00395514547394,7.35113597790991],"properties":{"name":"Faircastle","type":"Castle","id":190}},{"type":"Point","coordinates":[8.01665785778152,18.5117790820082],"properties":{"name":"Flint's Finger","type":"Castle","id":184}},{"type":"Point","coordinates":[19.9869839660144,4.62115475734934],"properties":{"name":"Rosby","type":"Castle","id":3}},{"type":"Point","coordinates":[7.54887742456876,11.060546672953],"properties":{"name":"Pyke","type":"Castle","id":188}},{"type":"Point","coordinates":[10.6448032269779,7.29602271088689],"properties":{"name":"Golden Tooth","type":"Castle","id":218}},{"type":"Point","coordinates":[25.4371734294232,15.9583898477579],"properties":{"name":"Baelish Keep","type":"Castle","id":164}},{"type":"Point","coordinates":[21.0779563103829,-2.24472901159995],"properties":{"name":"Crow's Nest","type":"Castle","id":35}},{"type":"Point","coordinates":[18.8025664529633,4.48799539197672],"properties":{"name":"Hayford","type":"Castle","id":2}},{"type":"Point","coordinates":[15.7983042798197,8.83786799414874],"properties":{"name":"Raventree Hall","type":"Castle","id":15}},{"type":"Point","coordinates":[7.26219270000008,5.49316403999995],"properties":{"name":"Casterly Rock","type":"Castle","id":256}},{"type":"Point","coordinates":[6.99576938992486,-8.0663630205219],"properties":{"name":"Three Towers","type":"Castle","id":59}},{"type":"Point","coordinates":[9.14500826962317,-9.72968702307102],"properties":{"name":"Sunflower Hall","type":"Castle","id":61}},{"type":"Point","coordinates":[8.77589985332716,1.47438870196493],"properties":{"name":"Red Lake","type":"Castle","id":81}},{"type":"Point","coordinates":[30.9761358030804,16.2410614830226],"properties":{"name":"Braavos","type":"Castle","id":145}},{"type":"Point","coordinates":[20.8396711302425,13.7904619343231],"properties":{"name":"Heart's Home","type":"Castle","id":105}},{"type":"Point","coordinates":[20.7205549109552,34.7615510957229],"properties":{"name":"Eastwatch-by-the-Sea","type":"Castle","id":197}},{"type":"Point","coordinates":[24.3485372142717,7.05306527231232],"properties":{"name":"Dragonstone","type":"Castle","id":22}}]